{
"type": "FeatureCollection",
"crs": { "type": "name", "properties": { "name": "urn:ogc:def:crs:OGC:1.3:CRS84" } },
"features": [
{ "type": "Feature", "properties": { "Station_ID": "HIS0001", "Station_Name": "ALAPPUZHA" }, "geometry": { "type": "Point", "coordinates": [76.31, 9.49, 0.0] } },
{ "type": "Feature", "properties": { "Station_ID": "HIS0002", "Station_Name": "CHERTHALA" }, "geometry": { "type": "Point", "coordinates": [76.332, 9.62, 0.0] } },
{ "type": "Feature", "properties": { "Station_ID": "HIS0003", "Station_Name": "KAYAMKULAM" }, "geometry": { "type": "Point", "coordinates": [76.5167, 9.1767, 0.0] } },
{ "type": "Feature", "properties": { "Station_ID": "HIS0004", "Station_Name": "KEERAMPARA" }, "geometry": { "type": "Point", "coordinates": [76.6672, 10.1, 0.0] } },
{ "type": "Feature", "properties": { "Station_ID": "HIS0005", "Station_Name": "MAVATTUPUZAH" }, "geometry": { "type": "Point", "coordinates": [76.56, 9.99, 0.0] } },
{ "type": "Feature", "properties": { "Station_ID": "HIS0006", "Station_Name": "NEELESWARAM" }, "geometry": { "type": "Point", "coordinates": [76.46, 10.18, 0.0] } },
{ "type": "Feature", "properties": { "Station_ID": "HIS0007", "Station_Name": "NERYAMANGALAM" }, "geometry": { "type": "Point", "coordinates": [76.77, 10.05, 0.0] } },
{ "type": "Feature", "properties": { "Station_ID": "HIS0008", "Station_Name": "NORTH_PARAVUR" }, "geometry": { "type": "Point", "coordinates": [76.23, 10.144, 0.0] } },
{ "type": "Feature", "properties": { "Station_ID": "HIS0009", "Station_Name": "PALLURUTHY" }, "geometry": { "type": "Point", "coordinates": [76.2621, 9.9264, 0.0] } },
{ "type": "Feature", "properties": { "Station_ID": "HIS0010", "Station_Name": "CHERUTHONI" }, "geometry": { "type": "Point", "coordinates": [76.9983, 9.865, 0.0] } },
{ "type": "Feature", "properties": { "Station_ID": "HIS0011", "Station_Name": "MUNNAR" }, "geometry": { "type": "Point", "coordinates": [77.0567, 10.0833, 0.0] } },
{ "type": "Feature", "properties": { "Station_ID": "HIS0012", "Station_Name": "PEERMADE" }, "geometry": { "type": "Point", "coordinates": [76.991, 9.573, 0.0] } },
{ "type": "Feature", "properties": { "Station_ID": "HIS0013", "Station_Name": "THODUPUZHA" }, "geometry": { "type": "Point", "coordinates": [76.6, 9.91, 0.0] } },
{ "type": "Feature", "properties": { "Station_ID": "HIS0014", "Station_Name": "CHERUTHAZHAM" }, "geometry": { "type": "Point", "coordinates": [75.25, 12.06, 0.0] } },
{ "type": "Feature", "properties": { "Station_ID": "HIS0015", "Station_Name": "IRIKKUR" }, "geometry": { "type": "Point", "coordinates": [75.555, 11.984, 0.0] } },
{ "type": "Feature", "properties": { "Station_ID": "HIS0016", "Station_Name": "KANNUR AIRPORT" }, "geometry": { "type": "Point", "coordinates": [75.5455, 11.728, 0.0] } },
{ "type": "Feature", "properties": { "Station_ID": "HIS0017", "Station_Name": "MATTANUR" }, "geometry": { "type": "Point", "coordinates": [75.56, 11.91, 0.0] } },
{ "type": "Feature", "properties": { "Station_ID": "HIS0018", "Station_Name": "PANNIYOOR" }, "geometry": { "type": "Point", "coordinates": [75.35, 12.08, 0.0] } },
{ "type": "Feature", "properties": { "Station_ID": "HIS0019", "Station_Name": "KUDLU_AFMU" }, "geometry": { "type": "Point", "coordinates": [74.96, 12.65, 0.0] } },
{ "type": "Feature", "properties": { "Station_ID": "HIS0020", "Station_Name": "MANJESWARAM" }, "geometry": { "type": "Point", "coordinates": [74.89, 12.72, 0.0] } },
{ "type": "Feature", "properties": { "Station_ID": "HIS0021", "Station_Name": "PILICODE" }, "geometry": { "type": "Point", "coordinates": [75.1667, 12.2, 0.0] } },
{ "type": "Feature", "properties": { "Station_ID": "HIS0022", "Station_Name": "VELLARIKKUNDU" }, "geometry": { "type": "Point", "coordinates": [75.296, 12.357, 0.0] } },
{ "type": "Feature", "properties": { "Station_ID": "HIS0023", "Station_Name": "ANCHAL" }, "geometry": { "type": "Point", "coordinates": [76.92, 8.93, 0.0] } },
{ "type": "Feature", "properties": { "Station_ID": "HIS0024", "Station_Name": "KOTTARAKKARA_KVK" }, "geometry": { "type": "Point", "coordinates": [76.808, 8.98324, 0.0] } },
{ "type": "Feature", "properties": { "Station_ID": "HIS0025", "Station_Name": "THENMALA" }, "geometry": { "type": "Point", "coordinates": [77.06, 8.95, 0.0] } },
{ "type": "Feature", "properties": { "Station_ID": "HIS0026", "Station_Name": "WEST KALLADA" }, "geometry": { "type": "Point", "coordinates": [76.629, 9.029, 0.0] } },
{ "type": "Feature", "properties": { "Station_ID": "HIS0027", "Station_Name": "KUMARAKOM_AFMU" }, "geometry": { "type": "Point", "coordinates": [76.42, 9.62, 0.0] } },
{ "type": "Feature", "properties": { "Station_ID": "HIS0028", "Station_Name": "POONJAR" }, "geometry": { "type": "Point", "coordinates": [76.827, 9.674, 0.0] } },
{ "type": "Feature", "properties": { "Station_ID": "HIS0029", "Station_Name": "KAKKAYAM" }, "geometry": { "type": "Point", "coordinates": [75.889, 11.553, 0.0] } },
{ "type": "Feature", "properties": { "Station_ID": "HIS0030", "Station_Name": "KOZHIKODE" }, "geometry": { "type": "Point", "coordinates": [75.77, 11.26, 0.0] } },
{ "type": "Feature", "properties": { "Station_ID": "HIS0031", "Station_Name": "PERUVANNAMUZHI" }, "geometry": { "type": "Point", "coordinates": [75.82, 11.61, 0.0] } },
{ "type": "Feature", "properties": { "Station_ID": "HIS0032", "Station_Name": "ANAKAYAM" }, "geometry": { "type": "Point", "coordinates": [76.11, 11.09, 0.0] } },
{ "type": "Feature", "properties": { "Station_ID": "HIS0033", "Station_Name": "NILAMBUR" }, "geometry": { "type": "Point", "coordinates": [76.23, 11.28, 0.0] } },
{ "type": "Feature", "properties": { "Station_ID": "HIS0034", "Station_Name": "THAVANUR_KVK" }, "geometry": { "type": "Point", "coordinates": [75.9855, 10.852, 0.0] } },
{ "type": "Feature", "properties": { "Station_ID": "HIS0035", "Station_Name": "VAKKAD" }, "geometry": { "type": "Point", "coordinates": [76.084, 11.05, 0.0] } },
{ "type": "Feature", "properties": { "Station_ID": "HIS0036", "Station_Name": "ADAKKAPUTHUR" }, "geometry": { "type": "Point", "coordinates": [76.373, 10.87, 0.0] } },
{ "type": "Feature", "properties": { "Station_ID": "HIS0037", "Station_Name": "ERIMAYUR" }, "geometry": { "type": "Point", "coordinates": [76.4617, 10.65, 0.0] } },
{ "type": "Feature", "properties": { "Station_ID": "HIS0038", "Station_Name": "KANJIRAPUZHA" }, "geometry": { "type": "Point", "coordinates": [76.53, 10.99, 0.0] } },
{ "type": "Feature", "properties": { "Station_ID": "HIS0039", "Station_Name": "MANKARA" }, "geometry": { "type": "Point", "coordinates": [76.6833, 10.77, 0.0] } },
{ "type": "Feature", "properties": { "Station_ID": "HIS0040", "Station_Name": "MEENKARA" }, "geometry": { "type": "Point", "coordinates": [76.79, 10.61, 0.0] } },
{ "type": "Feature", "properties": { "Station_ID": "HIS0041", "Station_Name": "PATTAMBI_KVK" }, "geometry": { "type": "Point", "coordinates": [76.1906, 10.8215, 0.0] } },
{ "type": "Feature", "properties": { "Station_ID": "HIS0042", "Station_Name": "KONNI" }, "geometry": { "type": "Point", "coordinates": [76.87, 9.23, 0.0] } },
{ "type": "Feature", "properties": { "Station_ID": "HIS0043", "Station_Name": "SEETHATHODE" }, "geometry": { "type": "Point", "coordinates": [76.971, 9.331, 0.0] } },
{ "type": "Feature", "properties": { "Station_ID": "HIS0044", "Station_Name": "VAZHAKUNNAM" }, "geometry": { "type": "Point", "coordinates": [76.73, 9.34, 0.0] } },
{ "type": "Feature", "properties": { "Station_ID": "HIS0045", "Station_Name": "AIRPORT(CHAKKA)" }, "geometry": { "type": "Point", "coordinates": [75.93, 11.41, 0.0] } },
{ "type": "Feature", "properties": { "Station_ID": "HIS0046", "Station_Name": "NEYYATTINKARA" }, "geometry": { "type": "Point", "coordinates": [77.082, 8.408, 0.0] } },
{ "type": "Feature", "properties": { "Station_ID": "HIS0047", "Station_Name": "PERINGAMALA" }, "geometry": { "type": "Point", "coordinates": [77.04, 8.75, 0.0] } },
{ "type": "Feature", "properties": { "Station_ID": "HIS0048", "Station_Name": "PERUMKADAVILA" }, "geometry": { "type": "Point", "coordinates": [77.11, 8.44, 0.0] } },
{ "type": "Feature", "properties": { "Station_ID": "HIS0049", "Station_Name": "THIRUVANANTHAPURAM" }, "geometry": { "type": "Point", "coordinates": [76.95, 8.4667, 0.0] } },
{ "type": "Feature", "properties": { "Station_ID": "HIS0050", "Station_Name": "VELLAYANI" }, "geometry": { "type": "Point", "coordinates": [76.9883, 8.4433, 0.0] } },
{ "type": "Feature", "properties": { "Station_ID": "HIS0051", "Station_Name": "CHALAKKUDY" }, "geometry": { "type": "Point", "coordinates": [76.333, 10.308, 0.0] } },
{ "type": "Feature", "properties": { "Station_ID": "HIS0052", "Station_Name": "CHIMONI" }, "geometry": { "type": "Point", "coordinates": [76.46, 10.44, 0.0] } },
{ "type": "Feature", "properties": { "Station_ID": "HIS0053", "Station_Name": "ENAMAKKAL" }, "geometry": { "type": "Point", "coordinates": [76.1, 10.5, 0.0] } },
{ "type": "Feature", "properties": { "Station_ID": "HIS0054", "Station_Name": "PERINGALKUTHU" }, "geometry": { "type": "Point", "coordinates": [76.634, 10.312, 0.0] } },
{ "type": "Feature", "properties": { "Station_ID": "HIS0055", "Station_Name": "VELLANIKKARA" }, "geometry": { "type": "Point", "coordinates": [76.285, 10.5617, 0.0] } },
{ "type": "Feature", "properties": { "Station_ID": "HIS0056", "Station_Name": "VILANGANKUNNU" }, "geometry": { "type": "Point", "coordinates": [76.16, 10.55, 0.0] } },
{ "type": "Feature", "properties": { "Station_ID": "HIS0057", "Station_Name": "VYANTHALA" }, "geometry": { "type": "Point", "coordinates": [76.29, 10.26, 0.0] } },
{ "type": "Feature", "properties": { "Station_ID": "HIS0058", "Station_Name": "AMBALAVAYAL_AFMU" }, "geometry": { "type": "Point", "coordinates": [76.2141, 11.6173, 0.0] } },
{ "type": "Feature", "properties": { "Station_ID": "HIS0059", "Station_Name": "MANANTHAVADY" }, "geometry": { "type": "Point", "coordinates": [76, 11.79, 0.0] } },
{ "type": "Feature", "properties": { "Station_ID": "HIS0060", "Station_Name": "MEENANGADI" }, "geometry": { "type": "Point", "coordinates": [76.16, 11.66, 0.0] } },
{ "type": "Feature", "properties": { "Station_ID": "HIS0061", "Station_Name": "PADINJARATHARA_DAM" }, "geometry": { "type": "Point", "coordinates": [75.946, 11.656, 0.0] } },
{ "type": "Feature", "properties": { "Station_ID": "HIS0062", "Station_Name": "POOKOT" }, "geometry": { "type": "Point", "coordinates": [76.02, 11.53, 0.0] } }
]
}
   
