{
"type": "FeatureCollection",
"crs": { "type": "name", "properties": { "name": "urn:ogc:def:crs:OGC:1.3:CRS84" } },
"features": [
{ "type": "Feature", "properties": { "Station_ID": "CSRF0001", "Station_Name": "CSRF0001", "Basin_ID": 76 }, "geometry": { "type": "Point", "coordinates": [ 76.2613773, 10.1753616, 0.0 ] } },
{ "type": "Feature", "properties": { "Station_ID": "CSRF0002", "Station_Name": "CSRF0002", "Basin_ID": 76 }, "geometry": { "type": "Point", "coordinates": [ 76.245521, 10.18341, 0.0 ] } },
{ "type": "Feature", "properties": { "Station_ID": "CSRF0003", "Station_Name": "CSRF0003", "Basin_ID": 75 }, "geometry": { "type": "Point", "coordinates": [ 76.2625785, 10.1749754, 0.0 ] } },
{ "type": "Feature", "properties": { "Station_ID": "CSRF0004", "Station_Name": "CSRF0004", "Basin_ID": 76 }, "geometry": { "type": "Point", "coordinates": [ 76.2481776, 10.1928327, 0.0 ] } },
{ "type": "Feature", "properties": { "Station_ID": "CSRF0005", "Station_Name": "CSRF0005", "Basin_ID": 75 }, "geometry": { "type": "Point", "coordinates": [ 76.2702924, 10.1572328, 0.0 ] } },
{ "type": "Feature", "properties": { "Station_ID": "CSRF0006", "Station_Name": "CSRF0006", "Basin_ID": 75 }, "geometry": { "type": "Point", "coordinates": [ 76.3113837, 10.1670174, 0.0 ] } },
{ "type": "Feature", "properties": { "Station_ID": "CSRF0007", "Station_Name": "CSRF0007", "Basin_ID": 75 }, "geometry": { "type": "Point", "coordinates": [ 76.204633, 10.188709, 0.0 ] } },
{ "type": "Feature", "properties": { "Station_ID": "CSRF0008", "Station_Name": "CSRF0008", "Basin_ID": 76 }, "geometry": { "type": "Point", "coordinates": [ 76.258624, 10.225568, 0.0 ] } },
{ "type": "Feature", "properties": { "Station_ID": "CSRF0009", "Station_Name": "CSRF0009", "Basin_ID": 75 }, "geometry": { "type": "Point", "coordinates": [ 76.324341, 10.189925, 0.0 ] } },
{ "type": "Feature", "properties": { "Station_ID": "CSRF0010", "Station_Name": "CSRF0010", "Basin_ID": 75 }, "geometry": { "type": "Point", "coordinates": [ 76.362518, 10.156682, 0.0 ] } },
{ "type": "Feature", "properties": { "Station_ID": "CSRF0011", "Station_Name": "CSRF0011", "Basin_ID": 79 }, "geometry": { "type": "Point", "coordinates": [ 76.288071, 10.179098, 0.0 ] } },
{ "type": "Feature", "properties": { "Station_ID": "CSRF0012", "Station_Name": "CSRF0012", "Basin_ID": 75 }, "geometry": { "type": "Point", "coordinates": [ 76.333997, 10.154757, 0.0 ] } },
{ "type": "Feature", "properties": { "Station_ID": "CSRF0013", "Station_Name": "CSRF0013", "Basin_ID": 79 }, "geometry": { "type": "Point", "coordinates": [ 76.307866, 10.226797, 0.0 ] } },
{ "type": "Feature", "properties": { "Station_ID": "CSRF0014", "Station_Name": "CSRF0014", "Basin_ID": 79 }, "geometry": { "type": "Point", "coordinates": [ 76.32357, 10.275347, 0.0 ] } },
{ "type": "Feature", "properties": { "Station_ID": "CSRF0015", "Station_Name": "CSRF0015", "Basin_ID": 79 }, "geometry": { "type": "Point", "coordinates": [ 76.3718804, 10.2856939, 0.0 ] } },
{ "type": "Feature", "properties": { "Station_ID": "CSRF0016", "Station_Name": "CSRF0016", "Basin_ID": 79 }, "geometry": { "type": "Point", "coordinates": [ 76.307674, 10.287734, 0.0 ] } },
{ "type": "Feature", "properties": { "Station_ID": "CSRF0017", "Station_Name": "CSRF0017", "Basin_ID": 79 }, "geometry": { "type": "Point", "coordinates": [ 76.343575, 10.273418, 0.0 ] } },
{ "type": "Feature", "properties": { "Station_ID": "CSRF0018", "Station_Name": "CSRF0018", "Basin_ID": 79 }, "geometry": { "type": "Point", "coordinates": [ 76.38638, 10.319814, 0.0 ] } },
{ "type": "Feature", "properties": { "Station_ID": "CSRF0019", "Station_Name": "CSRF0019", "Basin_ID": 79 }, "geometry": { "type": "Point", "coordinates": [ 76.561772, 10.289146, 0.0 ] } },
{ "type": "Feature", "properties": { "Station_ID": "CSRF0020", "Station_Name": "CSRF0020", "Basin_ID": 79 }, "geometry": { "type": "Point", "coordinates": [ 76.271478, 10.191957, 0.0 ] } },
{ "type": "Feature", "properties": { "Station_ID": "CSRF0021", "Station_Name": "CSRF0021", "Basin_ID": 72 }, "geometry": { "type": "Point", "coordinates": [ 76.210691, 10.170068, 0.0 ] } },
{ "type": "Feature", "properties": { "Station_ID": "CSRF0022", "Station_Name": "CSRF0022", "Basin_ID": 72 }, "geometry": { "type": "Point", "coordinates": [ 76.178933, 10.1709535, 0.0 ] } },
{ "type": "Feature", "properties": { "Station_ID": "CSRF0023", "Station_Name": "CSRF0023", "Basin_ID": 79 }, "geometry": { "type": "Point", "coordinates": [ 76.443068, 10.289717, 0.0 ] } },
{ "type": "Feature", "properties": { "Station_ID": "CSRF0024", "Station_Name": "CSRF0024", "Basin_ID": 76 }, "geometry": { "type": "Point", "coordinates": [ 76.2249, 10.195672, 0.0 ] } },
{ "type": "Feature", "properties": { "Station_ID": "CSRF0025", "Station_Name": "CSRF0025", "Basin_ID": 79 }, "geometry": { "type": "Point", "coordinates": [ 76.435343, 10.290256, 0.0 ] } },
{ "type": "Feature", "properties": { "Station_ID": "CSRF0026", "Station_Name": "CSRF0026", "Basin_ID": 76 }, "geometry": { "type": "Point", "coordinates": [ 76.209795, 10.196442, 0.0 ] } },
{ "type": "Feature", "properties": { "Station_ID": "CSRF0027", "Station_Name": "CSRF0027", "Basin_ID": 477 }, "geometry": { "type": "Point", "coordinates": [ 76.1625723, 10.192876, 0.0 ] } },
{ "type": "Feature", "properties": { "Station_ID": "CSRF0028", "Station_Name": "CSRF0028", "Basin_ID": 76 }, "geometry": { "type": "Point", "coordinates": [ 76.224023, 10.199572, 0.0 ] } },
{ "type": "Feature", "properties": { "Station_ID": "CSRF0029", "Station_Name": "CSRF0029", "Basin_ID": 79 }, "geometry": { "type": "Point", "coordinates": [ 76.348285, 10.292519, 0.0 ] } },
{ "type": "Feature", "properties": { "Station_ID": "IMDRF0001", "Station_Name": "Agathi Airport", "Basin_ID": null }, "geometry": { "type": "Point", "coordinates": [ 72.47, 10.85, 0.0 ] } },
{ "type": "Feature", "properties": { "Station_ID": "IMDRF0002", "Station_Name": "Alappuzha", "Basin_ID": 44.0 }, "geometry": { "type": "Point", "coordinates": [ 76.33, 9.55, 0.0 ] } },
{ "type": "Feature", "properties": { "Station_ID": "IMDRF0003", "Station_Name": "Alathur", "Basin_ID": 83.0 }, "geometry": { "type": "Point", "coordinates": [ 76.55, 10.63, 0.0 ] } },
{ "type": "Feature", "properties": { "Station_ID": "IMDRF0004", "Station_Name": "Alwaye Pwd", "Basin_ID": 75.0 }, "geometry": { "type": "Point", "coordinates": [ 76.35, 10.12, 0.0 ] } },
{ "type": "Feature", "properties": { "Station_ID": "IMDRF0005", "Station_Name": "Ambalavayal", "Basin_ID": 483.0 }, "geometry": { "type": "Point", "coordinates": [ 76.2, 11.62, 0.0 ] } },
{ "type": "Feature", "properties": { "Station_ID": "IMDRF0006", "Station_Name": "Amini", "Basin_ID": null }, "geometry": { "type": "Point", "coordinates": [ 72.73, 11.12, 0.0 ] } },
{ "type": "Feature", "properties": { "Station_ID": "IMDRF0007", "Station_Name": "Anakayam", "Basin_ID": 467.0 }, "geometry": { "type": "Point", "coordinates": [ 76.12, 11.08, 0.0 ] } },
{ "type": "Feature", "properties": { "Station_ID": "IMDRF0008", "Station_Name": "Angadipuram", "Basin_ID": 467.0 }, "geometry": { "type": "Point", "coordinates": [ 76.2, 10.97, 0.0 ] } },
{ "type": "Feature", "properties": { "Station_ID": "IMDRF0009", "Station_Name": "Aryankavu", "Basin_ID": 29.0 }, "geometry": { "type": "Point", "coordinates": [ 77.17, 8.98, 0.0 ] } },
{ "type": "Feature", "properties": { "Station_ID": "IMDRF0010", "Station_Name": "Chalakudy", "Basin_ID": 79.0 }, "geometry": { "type": "Point", "coordinates": [ 76.33, 10.3, 0.0 ] } },
{ "type": "Feature", "properties": { "Station_ID": "IMDRF0011", "Station_Name": "Chengannur", "Basin_ID": 33.0 }, "geometry": { "type": "Point", "coordinates": [ 76.62, 9.32, 0.0 ] } },
{ "type": "Feature", "properties": { "Station_ID": "IMDRF0012", "Station_Name": "Cherthala", "Basin_ID": 59.0 }, "geometry": { "type": "Point", "coordinates": [ 76.33, 9.7, 0.0 ] } },
{ "type": "Feature", "properties": { "Station_ID": "IMDRF0013", "Station_Name": "Cheruthazham", "Basin_ID": 106.0 }, "geometry": { "type": "Point", "coordinates": [ 75.25, 12.06, 0.0 ] } },
{ "type": "Feature", "properties": { "Station_ID": "IMDRF0014", "Station_Name": "Chittur", "Basin_ID": 83.0 }, "geometry": { "type": "Point", "coordinates": [ 76.73, 10.7, 0.0 ] } },
{ "type": "Feature", "properties": { "Station_ID": "IMDRF0015", "Station_Name": "Devikulam", "Basin_ID": 75.0 }, "geometry": { "type": "Point", "coordinates": [ 77.12, 10.06, 0.0 ] } },
{ "type": "Feature", "properties": { "Station_ID": "IMDRF0016", "Station_Name": "Enamackal", "Basin_ID": 81.0 }, "geometry": { "type": "Point", "coordinates": [ 76.1, 10.5, 0.0 ] } },
{ "type": "Feature", "properties": { "Station_ID": "IMDRF0017", "Station_Name": "Erimayur", "Basin_ID": 83.0 }, "geometry": { "type": "Point", "coordinates": [ 76.47, 10.65, 0.0 ] } },
{ "type": "Feature", "properties": { "Station_ID": "IMDRF0018", "Station_Name": "Ernakulam South", "Basin_ID": 69.0 }, "geometry": { "type": "Point", "coordinates": [ 76.28, 9.97, 0.0 ] } },
{ "type": "Feature", "properties": { "Station_ID": "IMDRF0019", "Station_Name": "Haripad", "Basin_ID": 33.0 }, "geometry": { "type": "Point", "coordinates": [ 76.45, 9.28, 0.0 ] } },
{ "type": "Feature", "properties": { "Station_ID": "IMDRF0020", "Station_Name": "Hosdurg", "Basin_ID": 114.0 }, "geometry": { "type": "Point", "coordinates": [ 75.1, 12.3, 0.0 ] } },
{ "type": "Feature", "properties": { "Station_ID": "IMDRF0021", "Station_Name": "Idukki", "Basin_ID": 75.0 }, "geometry": { "type": "Point", "coordinates": [ 76.92, 9.83, 0.0 ] } },
{ "type": "Feature", "properties": { "Station_ID": "IMDRF0022", "Station_Name": "Irikkur", "Basin_ID": 109.0 }, "geometry": { "type": "Point", "coordinates": [ 75.55, 11.97, 0.0 ] } },
{ "type": "Feature", "properties": { "Station_ID": "IMDRF0023", "Station_Name": "Irinjalakuda", "Basin_ID": 76.0 }, "geometry": { "type": "Point", "coordinates": [ 76.21, 10.34, 0.0 ] } },
{ "type": "Feature", "properties": { "Station_ID": "IMDRF0024", "Station_Name": "Kanjirappally", "Basin_ID": 54.0 }, "geometry": { "type": "Point", "coordinates": [ 76.79, 9.56, 0.0 ] } },
{ "type": "Feature", "properties": { "Station_ID": "IMDRF0025", "Station_Name": "Kannara", "Basin_ID": 80.0 }, "geometry": { "type": "Point", "coordinates": [ 76.34, 10.54, 0.0 ] } },
{ "type": "Feature", "properties": { "Station_ID": "IMDRF0026", "Station_Name": "Kannur", "Basin_ID": 100.0 }, "geometry": { "type": "Point", "coordinates": [ 75.37, 11.87, 0.0 ] } },
{ "type": "Feature", "properties": { "Station_ID": "IMDRF0027", "Station_Name": "Karipur Airport", "Basin_ID": 467.0 }, "geometry": { "type": "Point", "coordinates": [ 75.95, 11.13, 0.0 ] } },
{ "type": "Feature", "properties": { "Station_ID": "IMDRF0028", "Station_Name": "Kasargod", "Basin_ID": 124.0 }, "geometry": { "type": "Point", "coordinates": [ 74.99, 12.5, 0.0 ] } },
{ "type": "Feature", "properties": { "Station_ID": "IMDRF0029", "Station_Name": "Kavaratti", "Basin_ID": null }, "geometry": { "type": "Point", "coordinates": [ 72.62, 10.53, 0.0 ] } },
{ "type": "Feature", "properties": { "Station_ID": "IMDRF0030", "Station_Name": "Kayamkulam", "Basin_ID": 30.0 }, "geometry": { "type": "Point", "coordinates": [ 76.5, 9.18, 0.0 ] } },
{ "type": "Feature", "properties": { "Station_ID": "IMDRF0031", "Station_Name": "Kayamkulam Agri", "Basin_ID": 30.0 }, "geometry": { "type": "Point", "coordinates": [ 76.52, 9.17, 0.0 ] } },
{ "type": "Feature", "properties": { "Station_ID": "IMDRF0032", "Station_Name": "Kochi C.I.A.L. Airport", "Basin_ID": 75.0 }, "geometry": { "type": "Point", "coordinates": [ 76.4, 10.15, 0.0 ] } },
{ "type": "Feature", "properties": { "Station_ID": "IMDRF0033", "Station_Name": "Kochi NAS Airport", "Basin_ID": 33.0 }, "geometry": { "type": "Point", "coordinates": [ 76.23, 9.97, 0.0 ] } },
{ "type": "Feature", "properties": { "Station_ID": "IMDRF0034", "Station_Name": "Kodungallur", "Basin_ID": 76.0 }, "geometry": { "type": "Point", "coordinates": [ 76.2, 10.22, 0.0 ] } },
{ "type": "Feature", "properties": { "Station_ID": "IMDRF0035", "Station_Name": "Kollam Rly", "Basin_ID": 481.0 }, "geometry": { "type": "Point", "coordinates": [ 76.6, 8.88, 0.0 ] } },
{ "type": "Feature", "properties": { "Station_ID": "IMDRF0036", "Station_Name": "Kollengode", "Basin_ID": 83.0 }, "geometry": { "type": "Point", "coordinates": [ 76.72, 10.62, 0.0 ] } },
{ "type": "Feature", "properties": { "Station_ID": "IMDRF0037", "Station_Name": "Konni", "Basin_ID": 33.0 }, "geometry": { "type": "Point", "coordinates": [ 76.87, 9.23, 0.0 ] } },
{ "type": "Feature", "properties": { "Station_ID": "IMDRF0038", "Station_Name": "Kottayam", "Basin_ID": 63.0 }, "geometry": { "type": "Point", "coordinates": [ 76.52, 9.58, 0.0 ] } },
{ "type": "Feature", "properties": { "Station_ID": "IMDRF0039", "Station_Name": "Kozha", "Basin_ID": 63.0 }, "geometry": { "type": "Point", "coordinates": [ 76.57, 9.75, 0.0 ] } },
{ "type": "Feature", "properties": { "Station_ID": "IMDRF0040", "Station_Name": "Kozhikode", "Basin_ID": 461.0 }, "geometry": { "type": "Point", "coordinates": [ 75.78, 11.25, 0.0 ] } },
{ "type": "Feature", "properties": { "Station_ID": "IMDRF0041", "Station_Name": "Kudlu", "Basin_ID": 124.0 }, "geometry": { "type": "Point", "coordinates": [ 75.0, 12.5, 0.0 ] } },
{ "type": "Feature", "properties": { "Station_ID": "IMDRF0042", "Station_Name": "Kumarakam", "Basin_ID": 63.0 }, "geometry": { "type": "Point", "coordinates": [ 76.43, 9.62, 0.0 ] } },
{ "type": "Feature", "properties": { "Station_ID": "IMDRF0043", "Station_Name": "Kunnamkulam", "Basin_ID": 476.0 }, "geometry": { "type": "Point", "coordinates": [ 76.07, 10.65, 0.0 ] } },
{ "type": "Feature", "properties": { "Station_ID": "IMDRF0044", "Station_Name": "Kuppady", "Basin_ID": 483.0 }, "geometry": { "type": "Point", "coordinates": [ 76.27, 11.68, 0.0 ] } },
{ "type": "Feature", "properties": { "Station_ID": "IMDRF0045", "Station_Name": "Kurudamannil", "Basin_ID": 47.0 }, "geometry": { "type": "Point", "coordinates": [ 76.74, 9.35, 0.0 ] } },
{ "type": "Feature", "properties": { "Station_ID": "IMDRF0046", "Station_Name": "Mahe", "Basin_ID": 94.0 }, "geometry": { "type": "Point", "coordinates": [ 75.54, 11.7, 0.0 ] } },
{ "type": "Feature", "properties": { "Station_ID": "IMDRF0047", "Station_Name": "Mananthavady", "Basin_ID": 483.0 }, "geometry": { "type": "Point", "coordinates": [ 76.02, 11.8, 0.0 ] } },
{ "type": "Feature", "properties": { "Station_ID": "IMDRF0048", "Station_Name": "Mancompu", "Basin_ID": 47.0 }, "geometry": { "type": "Point", "coordinates": [ 76.42, 9.44, 0.0 ] } },
{ "type": "Feature", "properties": { "Station_ID": "IMDRF0049", "Station_Name": "Manjeri", "Basin_ID": 91.0 }, "geometry": { "type": "Point", "coordinates": [ 76.13, 11.12, 0.0 ] } },
{ "type": "Feature", "properties": { "Station_ID": "IMDRF0050", "Station_Name": "Mannarkkad", "Basin_ID": 83.0 }, "geometry": { "type": "Point", "coordinates": [ 76.47, 10.98, 0.0 ] } },
{ "type": "Feature", "properties": { "Station_ID": "IMDRF0051", "Station_Name": "Mattanur", "Basin_ID": 101.0 }, "geometry": { "type": "Point", "coordinates": [ 75.56, 11.91, 0.0 ] } },
{ "type": "Feature", "properties": { "Station_ID": "IMDRF0052", "Station_Name": "Mavelikkara", "Basin_ID": 33.0 }, "geometry": { "type": "Point", "coordinates": [ 76.53, 9.25, 0.0 ] } },
{ "type": "Feature", "properties": { "Station_ID": "IMDRF0053", "Station_Name": "Meenangadi", "Basin_ID": 483.0 }, "geometry": { "type": "Point", "coordinates": [ 76.17, 11.66, 0.0 ] } },
{ "type": "Feature", "properties": { "Station_ID": "IMDRF0054", "Station_Name": "Minicoy", "Basin_ID": null }, "geometry": { "type": "Point", "coordinates": [ 73.15, 8.3, 0.0 ] } },
{ "type": "Feature", "properties": { "Station_ID": "IMDRF0055", "Station_Name": "Munnar  Kseb", "Basin_ID": 75.0 }, "geometry": { "type": "Point", "coordinates": [ 77.07, 10.1, 0.0 ] } },
{ "type": "Feature", "properties": { "Station_ID": "IMDRF0056", "Station_Name": "Myladumpara Agri", "Basin_ID": 33.0 }, "geometry": { "type": "Point", "coordinates": [ 77.03, 9.13, 0.0 ] } },
{ "type": "Feature", "properties": { "Station_ID": "IMDRF0057", "Station_Name": "Nedumangad", "Basin_ID": 16.0 }, "geometry": { "type": "Point", "coordinates": [ 77.0, 8.6, 0.0 ] } },
{ "type": "Feature", "properties": { "Station_ID": "IMDRF0058", "Station_Name": "Neyyattinkara", "Basin_ID": 14.0 }, "geometry": { "type": "Point", "coordinates": [ 77.08, 8.38, 0.0 ] } },
{ "type": "Feature", "properties": { "Station_ID": "IMDRF0059", "Station_Name": "Nilambur", "Basin_ID": 91.0 }, "geometry": { "type": "Point", "coordinates": [ 76.23, 11.28, 0.0 ] } },
{ "type": "Feature", "properties": { "Station_ID": "IMDRF0060", "Station_Name": "Ottapalam", "Basin_ID": 83.0 }, "geometry": { "type": "Point", "coordinates": [ 76.38, 10.78, 0.0 ] } },
{ "type": "Feature", "properties": { "Station_ID": "IMDRF0061", "Station_Name": "Palakkad", "Basin_ID": 83.0 }, "geometry": { "type": "Point", "coordinates": [ 76.65, 10.77, 0.0 ] } },
{ "type": "Feature", "properties": { "Station_ID": "IMDRF0062", "Station_Name": "Paravur", "Basin_ID": 72.0 }, "geometry": { "type": "Point", "coordinates": [ 76.22, 10.15, 0.0 ] } },
{ "type": "Feature", "properties": { "Station_ID": "IMDRF0063", "Station_Name": "Parumbikulam", "Basin_ID": 79.0 }, "geometry": { "type": "Point", "coordinates": [ 76.75, 10.33, 0.0 ] } },
{ "type": "Feature", "properties": { "Station_ID": "IMDRF0064", "Station_Name": "Pattambi", "Basin_ID": 83.0 }, "geometry": { "type": "Point", "coordinates": [ 76.2, 10.8, 0.0 ] } },
{ "type": "Feature", "properties": { "Station_ID": "IMDRF0065", "Station_Name": "Peermade", "Basin_ID": 47.0 }, "geometry": { "type": "Point", "coordinates": [ 76.98, 9.57, 0.0 ] } },
{ "type": "Feature", "properties": { "Station_ID": "IMDRF0066", "Station_Name": "Perinthalamanna", "Basin_ID": 467.0 }, "geometry": { "type": "Point", "coordinates": [ 76.23, 10.97, 0.0 ] } },
{ "type": "Feature", "properties": { "Station_ID": "IMDRF0067", "Station_Name": "Perumbavur", "Basin_ID": 75.0 }, "geometry": { "type": "Point", "coordinates": [ 76.48, 10.12, 0.0 ] } },
{ "type": "Feature", "properties": { "Station_ID": "IMDRF0068", "Station_Name": "Piravom", "Basin_ID": 71.0 }, "geometry": { "type": "Point", "coordinates": [ 76.47, 9.8, 0.0 ] } },
{ "type": "Feature", "properties": { "Station_ID": "IMDRF0069", "Station_Name": "Ponnani", "Basin_ID": 83.0 }, "geometry": { "type": "Point", "coordinates": [ 75.92, 10.78, 0.0 ] } },
{ "type": "Feature", "properties": { "Station_ID": "IMDRF0070", "Station_Name": "Pookot", "Basin_ID": 483.0 }, "geometry": { "type": "Point", "coordinates": [ 76.02, 11.53, 0.0 ] } },
{ "type": "Feature", "properties": { "Station_ID": "IMDRF0071", "Station_Name": "Punalur", "Basin_ID": 29.0 }, "geometry": { "type": "Point", "coordinates": [ 76.92, 9.0, 0.0 ] } },
{ "type": "Feature", "properties": { "Station_ID": "IMDRF0072", "Station_Name": "Quilandi", "Basin_ID": 90.0 }, "geometry": { "type": "Point", "coordinates": [ 75.7, 11.45, 0.0 ] } },
{ "type": "Feature", "properties": { "Station_ID": "IMDRF0073", "Station_Name": "Taliparamba", "Basin_ID": 113.0 }, "geometry": { "type": "Point", "coordinates": [ 75.35, 12.05, 0.0 ] } },
{ "type": "Feature", "properties": { "Station_ID": "IMDRF0074", "Station_Name": "Thalassery", "Basin_ID": 458.0 }, "geometry": { "type": "Point", "coordinates": [ 75.49, 11.75, 0.0 ] } },
{ "type": "Feature", "properties": { "Station_ID": "IMDRF0075", "Station_Name": "Thamarassery", "Basin_ID": 91.0 }, "geometry": { "type": "Point", "coordinates": [ 75.94, 11.42, 0.0 ] } },
{ "type": "Feature", "properties": { "Station_ID": "IMDRF0076", "Station_Name": "Thiruvalla", "Basin_ID": 47.0 }, "geometry": { "type": "Point", "coordinates": [ 76.57, 9.38, 0.0 ] } },
{ "type": "Feature", "properties": { "Station_ID": "IMDRF0077", "Station_Name": "Thiruvananthapuram", "Basin_ID": 16.0 }, "geometry": { "type": "Point", "coordinates": [ 76.95, 8.47, 0.0 ] } },
{ "type": "Feature", "properties": { "Station_ID": "IMDRF0078", "Station_Name": "Thiruvananthapuram Airport", "Basin_ID": 16.0 }, "geometry": { "type": "Point", "coordinates": [ 76.92, 8.48, 0.0 ] } },
{ "type": "Feature", "properties": { "Station_ID": "IMDRF0079", "Station_Name": "Thodupuzha", "Basin_ID": 63.0 }, "geometry": { "type": "Point", "coordinates": [ 76.67, 9.83, 0.0 ] } },
{ "type": "Feature", "properties": { "Station_ID": "IMDRF0080", "Station_Name": "Thrissur", "Basin_ID": 81.0 }, "geometry": { "type": "Point", "coordinates": [ 76.22, 10.52, 0.0 ] } },
{ "type": "Feature", "properties": { "Station_ID": "IMDRF0081", "Station_Name": "Thrithala", "Basin_ID": 83.0 }, "geometry": { "type": "Point", "coordinates": [ 76.1, 10.83, 0.0 ] } },
{ "type": "Feature", "properties": { "Station_ID": "IMDRF0082", "Station_Name": "Vadakara", "Basin_ID": 93.0 }, "geometry": { "type": "Point", "coordinates": [ 75.58, 11.6, 0.0 ] } },
{ "type": "Feature", "properties": { "Station_ID": "IMDRF0083", "Station_Name": "Vadakkancherry", "Basin_ID": 82.0 }, "geometry": { "type": "Point", "coordinates": [ 76.24, 10.66, 0.0 ] } },
{ "type": "Feature", "properties": { "Station_ID": "IMDRF0084", "Station_Name": "Vaikom", "Basin_ID": 71.0 }, "geometry": { "type": "Point", "coordinates": [ 76.4, 9.75, 0.0 ] } },
{ "type": "Feature", "properties": { "Station_ID": "IMDRF0085", "Station_Name": "Varkala", "Basin_ID": 18.0 }, "geometry": { "type": "Point", "coordinates": [ 76.72, 8.74, 0.0 ] } },
{ "type": "Feature", "properties": { "Station_ID": "IMDRF0086", "Station_Name": "Vellanikkara", "Basin_ID": 80.0 }, "geometry": { "type": "Point", "coordinates": [ 76.28, 10.53, 0.0 ] } },
{ "type": "Feature", "properties": { "Station_ID": "IMDRF0087", "Station_Name": "Vynthala", "Basin_ID": 79.0 }, "geometry": { "type": "Point", "coordinates": [ 76.3, 10.26, 0.0 ] } },
{ "type": "Feature", "properties": { "Station_ID": "IMDRF0088", "Station_Name": "Vythiri", "Basin_ID": 483.0 }, "geometry": { "type": "Point", "coordinates": [ 76.03, 11.55, 0.0 ] } }
]
}
