{
"type": "FeatureCollection",
"crs": { "type": "name", "properties": { "name": "urn:ogc:def:crs:OGC:1.3:CRS84" } },
"features": [
{ "type": "Feature", "properties": { "Station_Name": "Bavikkara Regulator ", "Station_ID": "RGLTR0001", "Basin_ID": 124.0 }, "geometry": { "type": "Point", "coordinates": [ 75.077504, 12.482563, 0.0 ] } },
{ "type": "Feature", "properties": { "Station_Name": "Pandikandam Regulator cum Bridge", "Station_ID": "RGLTR0002", "Basin_ID": 124.0 }, "geometry": { "type": "Point", "coordinates": [ 75.117306, 12.47224, 0.0 ] } },
{ "type": "Feature", "properties": { "Station_Name": "Palayi Kukkott Thankaikkadavu  Regulator cum Bridge ", "Station_ID": "RGLTR0003", "Basin_ID": 116.0 }, "geometry": { "type": "Point", "coordinates": [ 75.168863, 12.262006, 0.0 ] } },
{ "type": "Feature", "properties": { "Station_Name": "Cherupuzha Regulator Cum Bridge", "Station_ID": "RGLTR0004", "Basin_ID": 116.0 }, "geometry": { "type": "Point", "coordinates": [ 75.3594791, 12.2744262, 0.0 ] } },
{ "type": "Feature", "properties": { "Station_Name": "Irinavu Regulator", "Station_ID": "RGLTR0005", "Basin_ID": 108.0 }, "geometry": { "type": "Point", "coordinates": [ 75.33987, 11.997042, 0.0 ] } },
{ "type": "Feature", "properties": { "Station_Name": "Madambam Regulator cum Bridge", "Station_ID": "RGLTR0006", "Basin_ID": 109.0 }, "geometry": { "type": "Point", "coordinates": [ 75.530609, 12.032676, 0.0 ] } },
{ "type": "Feature", "properties": { "Station_Name": "Parapram Regulator Cum Bridge", "Station_ID": "RGLTR0007", "Basin_ID": 101.0 }, "geometry": { "type": "Point", "coordinates": [ 75.474924, 11.817799, 0.0 ] } },
{ "type": "Feature", "properties": { "Station_Name": "Mampattil Regulator Cum Bridge", "Station_ID": "RGLTR0008", "Basin_ID": 92.0 }, "geometry": { "type": "Point", "coordinates": [ 75.795261, 11.564559, 0.0 ] } },
{ "type": "Feature", "properties": { "Station_Name": "Chittarikadavu Regulator Cum Bridge", "Station_ID": "RGLTR0009", "Basin_ID": 90.0 }, "geometry": { "type": "Point", "coordinates": [ 75.737066, 11.455524, 0.0 ] } },
{ "type": "Feature", "properties": { "Station_Name": "Muyyayil Regulator Bridge", "Station_ID": "RGLTR0010", "Basin_ID": 91.0 }, "geometry": { "type": "Point", "coordinates": [ 75.873179, 11.217979, 0.0 ] } },
{ "type": "Feature", "properties": { "Station_Name": "Odayikkal Regulator Cum Bridge", "Station_ID": "RGLTR0011", "Basin_ID": 91.0 }, "geometry": { "type": "Point", "coordinates": [ 76.181956, 11.25472, 0.0 ] } },
{ "type": "Feature", "properties": { "Station_Name": "Arempulikkal Regulator Cum Bridge ", "Station_ID": "RGLTR0012", "Basin_ID": 91.0 }, "geometry": { "type": "Point", "coordinates": [ 76.2966466, 11.3237808, 0.0 ] } },
{ "type": "Feature", "properties": { "Station_Name": "Pookkottumanna Regulator Cum Bridge", "Station_ID": "RGLTR0013", "Basin_ID": 91.0 }, "geometry": { "type": "Point", "coordinates": [ 76.256473, 11.366086, 0.0 ] } },
{ "type": "Feature", "properties": { "Station_Name": "Bakkikayam Regulator Cum Bridge", "Station_ID": "RGLTR0014", "Basin_ID": 467.0 }, "geometry": { "type": "Point", "coordinates": [ 75.941927, 11.035456, 0.0 ] } },
{ "type": "Feature", "properties": { "Station_Name": "Puzhankavu Regulator - work in progress", "Station_ID": "RGLTR0015", "Basin_ID": 467.0 }, "geometry": { "type": "Point", "coordinates": [ 76.1581771, 11.0913823, 0.0 ] } },
{ "type": "Feature", "properties": { "Station_Name": "Enamakkal regulator cum bridge", "Station_ID": "RGLTR0016", "Basin_ID": 81.0 }, "geometry": { "type": "Point", "coordinates": [ 76.108218, 10.504206, 0.0 ] } },
{ "type": "Feature", "properties": { "Station_Name": "Kuthumakkal regulator", "Station_ID": "RGLTR0017", "Basin_ID": 80.0 }, "geometry": { "type": "Point", "coordinates": [ 76.157057, 10.338812, 0.0 ] } },
{ "type": "Feature", "properties": { "Station_Name": "Pathalam Regulator - Bridge", "Station_ID": "RGLTR0018", "Basin_ID": 75.0 }, "geometry": { "type": "Point", "coordinates": [ 76.308694, 10.076404, 0.0 ] } },
{ "type": "Feature", "properties": { "Station_Name": "Manjummel Bridge Cum Regulator.", "Station_ID": "RGLTR0019", "Basin_ID": 70.0 }, "geometry": { "type": "Point", "coordinates": [ 76.307394, 10.057886, 0.0 ] } },
{ "type": "Feature", "properties": { "Station_Name": "Andhakaranazhy Regulator cum Bridge North ", "Station_ID": "RGLTR0020", "Basin_ID": 67.0 }, "geometry": { "type": "Point", "coordinates": [ 76.2860583, 9.7507157, 0.0 ] } },
{ "type": "Feature", "properties": { "Station_Name": "Moolathara Regulator", "Station_ID": "RGLTR0021", "Basin_ID": 83.0 }, "geometry": { "type": "Point", "coordinates": [ 76.8729269, 10.6657368, 0.0 ] } },
{ "type": "Feature", "properties": { "Station_Name": "Velliyankallu Regulator cum Bridge ", "Station_ID": "RGLTR0022", "Basin_ID": 83.0 }, "geometry": { "type": "Point", "coordinates": [ 76.11855, 10.80726, 0.0 ] } },
{ "type": "Feature", "properties": { "Station_Name": "Chamravattom Regulator", "Station_ID": "RGLTR0023", "Basin_ID": 83.0 }, "geometry": { "type": "Point", "coordinates": [ 75.9593763, 10.8199808, 0.0 ] } },
{ "type": "Feature", "properties": { "Station_Name": "Beeyam Regulator", "Station_ID": "RGLTR0024", "Basin_ID": 476.0 }, "geometry": { "type": "Point", "coordinates": [ 75.9665103, 10.7851872, 0.0 ] } },
{ "type": "Feature", "properties": { "Station_Name": "Purappillykavu Regulator cum Bridge", "Station_ID": "RGLTR0025", "Basin_ID": 75.0 }, "geometry": { "type": "Point", "coordinates": [ 76.2830475, 10.1442694, 0.0 ] } },
{ "type": "Feature", "properties": { "Station_Name": "Kanakkankadavu Regulator cum Bridge ", "Station_ID": "RGLTR0026", "Basin_ID": 79.0 }, "geometry": { "type": "Point", "coordinates": [ 76.2732958, 10.1734156, 0.0 ] } },
{ "type": "Feature", "properties": { "Station_Name": "Alamattom Regularor ", "Station_ID": "RGLTR0027", "Basin_ID": 79.0 }, "geometry": { "type": "Point", "coordinates": [ 76.2739729, 10.1701141, 0.0 ] } },
{ "type": "Feature", "properties": { "Station_Name": "Kanakkankadavu Sand Bund Temporary ", "Station_ID": "RGLTR0028", "Basin_ID": 75.0 }, "geometry": { "type": "Point", "coordinates": [ 76.2722624, 10.1698423, 0.0 ] } },
{ "type": "Feature", "properties": { "Station_Name": "Manjali Regulator", "Station_ID": "RGLTR0029", "Basin_ID": 75.0 }, "geometry": { "type": "Point", "coordinates": [ 76.2799497, 10.1538336, 0.0 ] } },
{ "type": "Feature", "properties": { "Station_Name": "Cherukadapuram Regulator", "Station_ID": "RGLTR0030", "Basin_ID": 79.0 }, "geometry": { "type": "Point", "coordinates": [ 76.2788445, 10.1611445, 0.0 ] } },
{ "type": "Feature", "properties": { "Station_Name": "Vishnumangalam Regulator", "Station_ID": "RGLTR0031", "Basin_ID": 94.0 }, "geometry": { "type": "Point", "coordinates": [ 75.6659835, 11.7013278, 0.0 ] } },
{ "type": "Feature", "properties": { "Station_Name": "Perincherikadavu Regulator - Work in progress", "Station_ID": "RGLTR0032", "Basin_ID": 92.0 }, "geometry": { "type": "Point", "coordinates": [ 75.6974466, 11.593683, 0.0 ] } },
{ "type": "Feature", "properties": { "Station_Name": "Kavanakallu Regulator ", "Station_ID": "RGLTR0033", "Basin_ID": 91.0 }, "geometry": { "type": "Point", "coordinates": [ 75.9222301, 11.2431383, 0.0 ] } },
{ "type": "Feature", "properties": { "Station_Name": "Thaneermukkom Regulator Cum Bridge", "Station_ID": "RGLTR0034", "Basin_ID": null }, "geometry": { "type": "Point", "coordinates": [ 76.3999173, 9.6743163, 0.0 ] } },
{ "type": "Feature", "properties": { "Station_Name": "Andhakaranazhy Regulator cum Bridge South", "Station_ID": "RGLTR0035", "Basin_ID": 67.0 }, "geometry": { "type": "Point", "coordinates": [ 76.2854367, 9.747377, 0.0 ] } },
{ "type": "Feature", "properties": { "Station_Name": "Thottappally Spillway", "Station_ID": "RGLTR0036", "Basin_ID": 33.0 }, "geometry": { "type": "Point", "coordinates": [ 76.386179, 9.317572, 0.0 ] } },
{ "type": "Feature", "properties": { "Station_Name": "Odenchira Regulator ", "Station_ID": "RGLTR0037", "Basin_ID": 80.0 }, "geometry": { "type": "Point", "coordinates": [ 76.2402934, 10.4331421, 0.0 ] } },
{ "type": "Feature", "properties": { "Station_Name": "Athikavu Regulator ", "Station_ID": "RGLTR0038", "Basin_ID": 80.0 }, "geometry": { "type": "Point", "coordinates": [ 76.2232218, 10.4045904, 0.0 ] } },
{ "type": "Feature", "properties": { "Station_Name": "Illikkal Regulator", "Station_ID": "RGLTR0039", "Basin_ID": 80.0 }, "geometry": { "type": "Point", "coordinates": [ 76.202927, 10.4103886, 0.0 ] } },
{ "type": "Feature", "properties": { "Station_Name": "Pulakkattukara Regulator", "Station_ID": "RGLTR0040", "Basin_ID": 80.0 }, "geometry": { "type": "Point", "coordinates": [ 76.2709894, 10.4499016, 0.0 ] } },
{ "type": "Feature", "properties": { "Station_Name": "Kainoor Chira Regulator", "Station_ID": "RGLTR0041", "Basin_ID": 80.0 }, "geometry": { "type": "Point", "coordinates": [ 76.275035, 10.5019964, 0.0 ] } },
{ "type": "Feature", "properties": { "Station_Name": "Valiyathodu Weir", "Station_ID": "RGLTR0042", "Basin_ID": 71.0 }, "geometry": { "type": "Point", "coordinates": [ 76.5190989, 9.7857563, 0.0 ] } },
{ "type": "Feature", "properties": { "Station_Name": "Nambrani Weir", "Station_ID": "RGLTR0043", "Basin_ID": 467.0 }, "geometry": { "type": "Point", "coordinates": [ 76.0768598, 11.0348647, 0.0 ] } },
{ "type": "Feature", "properties": { "Station_Name": "Melattingal Weir", "Station_ID": "RGLTR0044", "Basin_ID": 19.0 }, "geometry": { "type": "Point", "coordinates": [ 76.8107292, 8.70867, 0.0 ] } }
]
}
